{
    "spots": [
        {
            "name": "ソアリン：ファンタスティック・フライト",
            "lat": "35.62753096260775",
            "lon": "139.88570175371126",
            "type": "attraction",
            "play-time": "300"
        },
        {
            "name": "ディズニーシー・トランジットスチーマーライン（メディテレーニアンハーバー）",
            "lat": "35.626573169189264",
            "lon": "139.88593456101927",
            "type": "attraction",
            "play-time": "420"
        },
        {
            "name": "フォートレス・エクスプロレーション",
            "lat": "35.62577595814663",
            "lon": "139.88521622867762",
            "type": "attraction"
        },
        {
            "name": "ヴェネツィアン・ゴンドラ",
            "lat": "35.62609086477499",
            "lon": "139.88796327515433",
            "type": "attraction",
            "play-time": "690"
        },
        {
            "name": "タートル・トーク",
            "lat": "35.62334375031604",
            "lon": "139.88726518210083",
            "type": "attraction",
            "play-time": "1800"
        },
        {
            "name": "タワー・オブ・テラー",
            "lat": "35.62391248028388",
            "lon": "139.88828835075003",
            "type": "attraction",
            "play-time": "120"
        },
        {
            "name": "ディズニーシー・エレクトリックレールウェイ（アメリカンウォーターフロント）",
            "lat": "35.62491145456335",
            "lon": "139.88775091735545",
            "type": "attraction",
            "play-time": "150"
        },
        {
            "name": "ディズニーシー・トランジットスチーマーライン（アメリカンウォーターフロント）",
            "lat": "35.62420292517226",
            "lon": "139.88569672120138",
            "type": "attraction",
            "play-time": "780"
        },
        {
            "name": "トイ・ストーリー・マニア！",
            "lat": "35.62477700583167",
            "lon": "139.8889301319155",
            "type": "attraction",
            "play-time": "420"
        },
        {
            "name": "ビッグシティ・ヴィークル",
            "lat": "35.62439387470845",
            "lon": "139.88706200880483",
            "type": "attraction",
            "play-time": "600"
        },
        {
            "name": "アクアトピア",
            "lat": "35.62468589551906",
            "lon": "139.88349606906613",
            "type": "attraction",
            "play-time": "150"
        },
        {
            "name": "ディズニーシー・エレクトリックレールウェイ（ポートディスカバリー）",
            "lat": "35.62539074665123",
            "lon": "139.88309169515944",
            "type": "attraction",
            "play-time": "150"
        },
        {
            "name": "ニモ＆フレンズ・シーライダー",
            "lat": "35.62494825695022",
            "lon": "139.88251554646882",
            "type": "attraction",
            "play-time": "300"
        },
        {
            "name": "インディ・ジョーンズ・アドベンチャー： クリスタルスカルの魔宮",
            "lat": "35.6263737631128",
            "lon": "139.8809767843943",
            "type": "attraction",
            "play-time": "180"
        },
        {
            "name": "ディズニーシー・トランジットスチーマーライン（ロストリバーデルタ）",
            "lat": "35.62673965820737",
            "lon": "139.8819008279609",
            "type": "attraction",
            "play-time": "360"
        },
        {
            "name": "レイジングスピリッツ",
            "lat": "35.627722226399435",
            "lon": "139.88080457814263",
            "type": "attraction",
            "play-time": "90"
        },
        {
            "name": "キャラバンカルーセル",
            "lat": "35.62817027479872",
            "lon": "139.88333969788812",
            "type": "attraction",
            "play-time": "150"
        },
        {
            "name": "ジャスミンのフライングカーペット",
            "lat": "35.62835033507712",
            "lon": "139.88110064513887",
            "type": "attraction",
            "play-time": "90"
        },
        {
            "name": "シンドバッド・ストーリーブック・ヴォヤッジ",
            "lat": "35.628507999414445",
            "lon": "139.8814498574758",
            "type": "attraction",
            "play-time": "600"
        },
        {
            "name": "マジックランプシアター",
            "lat": "35.628433782867795",
            "lon": "139.88306798035555",
            "type": "attraction",
            "play-time": "1380"     
        },
        {
            "name": "アリエルのプレイグラウンド",
            "lat": "35.62679154348968",
            "lon": "139.8833172765092",
            "type": "attraction"
        },
        {
            "name": "ジャンピン・ジェリーフィッシュ",
            "lat": "35.626514238390236",
            "lon": "139.88340256425997",
            "type": "attraction",
            "play-time": "60"
        },
        {
            "name": "スカットルのスクーター",
            "lat": "35.62726987355347",
            "lon": "139.88321567037846",
            "type": "attraction",
            "play-time": "90"
        },
        {
            "name": "フランダーのフライングフィッシュコースター",
            "lat": "35.627035483426376",
            "lon": "139.88224597144833",
            "type": "attraction",
            "play-time": "60"
        },
        {
            "name": "ブローフィッシュ・バルーンレース",
            "lat": "35.626468454526325",
            "lon": "139.88290367341438",
            "type": "attraction",
            "play-time": "90"
        },
        {
            "name": "マーメイドラグーンシアター",
            "lat": "35.62640700722643",
            "lon": "139.88271825269382",
            "type": "attraction",
            "play-time": "840"
        },
        {
            "name": "ワールプール",
            "lat": "35.626673391618006",
            "lon": "139.88312897895753",
            "type": "attraction",
            "play-time": "90"
        },
        {
            "name": "海底2万マイル",
            "lat": "35.62641929875694",
            "lon": "139.88461075873784",
            "type": "attraction",
            "play-time": "300"
        },
        {
            "name": "センター・オブ・ジ・アース",
            "lat": "35.62591270174353",
            "lon": "139.88453268519172",
            "type": "attraction",
            "play-time": "180"
        },
        {
            "name": "カフェ・ポルトフィーノ",
            "lat": "35.62695264833476",
            "lon": "139.88714679981504",
            "type": "restaurant"
        },
        {
            "name": "ゴンドリエ・スナック",
            "lat": "35.625966268892086",
            "lon": "139.88730258806373",
            "type": "restaurant"
        },
        {
            "name": "ザンビーニ･ブラザーズ･リストランテ",
            "lat": "35.627169846655995",
            "lon": "139.8860085445333",
            "type": "restaurant"
        },
        {
            "name": "マゼランズ",
            "lat": "35.62593079188322",
            "lon": "139.88528718994823",
            "type": "restaurant"
        },
        {
            "name": "マゼランズ・ラウンジ",
            "lat": "35.62591171513723",
            "lon": "139.88533479915824",
            "type": "restaurant"
        },
        {
            "name": "マンマ・ビスコッティーズ・ベーカリー",
            "lat": "35.627031123601206",
            "lon": "139.88761556530423",
            "type": "restaurant"
        },
        {
            "name": "リストランテ・ディ・カナレット",
            "lat": "35.6256768376592",
            "lon": "139.8878840659662",
            "type": "restaurant"
        },
        {
            "name": "リフレスコス",
            "lat": "35.625922848537776",
            "lon": "139.88498528406274",
            "type": "restaurant"
        },
        {
            "name": "S.S.コロンビア・ダイニングルーム",
            "lat": "35.62336259993873",
            "lon": "139.88722275593676",
            "type": "restaurant"
        },
        {
            "name": "ケープコッド・クックオフ",
            "lat": "35.62454246535265",
            "lon": "139.88510562868893",
            "type": "restaurant"
        },
        {
            "name": "ケープコッド・コンフェクション",
            "lat": "35.62455907346721",
            "lon": "139.8849652703674",
            "type": "restaurant"
        },
        {
            "name": "ドックサイドダイナー",
            "lat": "35.62377706755055",
            "lon": "139.88760165630976",
            "type": "restaurant"
        },
        {
            "name": "テディ・ルーズヴェルト・ラウンジ",
            "lat": "35.62340244500671",
            "lon": "139.887249490907",
            "type": "restaurant"
        },
        {
            "name": "デランシー・ケータリング",
            "lat": "35.62486059009338",
            "lon": "139.8875073792503",
            "type": "restaurant"
        },
        {
            "name": "ニューヨーク・デリ",
            "lat": "35.625360255196206",
            "lon": "139.8878674000761",
            "type": "restaurant"
        },
        {
            "name": "バーナクル・ビルズ",
            "lat": "35.624057270334205",
            "lon": "139.88680246759344",
            "type": "restaurant"
        },
        {
            "name": "ハイタイド・トリート",
            "lat": "35.624982684284234",
            "lon": "139.88435859423043",
            "type": "restaurant"
        },
        {
            "name": "ハドソンリバー・ハーベスト",
            "lat": "35.623791799452526",
            "lon": "139.88736299869663",
            "type": "restaurant"
        },
        {
            "name": "パパダキス・フレッシュフルーツ",
            "lat": "35.6241067916498",
            "lon": "139.88698791986826",
            "type": "restaurant"
        },
        {
            "name": "リバティ・ランディング・ダイナー",
            "lat": "35.62453805491093",
            "lon": "139.88702237925037",
            "type": "restaurant"
        },
        {
            "name": "レストラン櫻",
            "lat": "35.624750388158205",
            "lon": "139.88706780260532",
            "type": "restaurant"
        },
        {
            "name": "レストラン櫻 テラス席",
            "lat": "35.62463665215171",
            "lon": "139.88699008414704",
            "type": "restaurant"
        },
        {
            "name": "シーサイドスナック",
            "lat": "35.624226490084894",
            "lon": "139.88407739704098",
            "type": "restaurant"
        },
        {
            "name": "ブリーズウェイ・バイツ",
            "lat": "35.62557288181555",
            "lon": "139.8832934499238",
            "type": "restaurant"
        },
        {
            "name": "ベイサイド・テイクアウト",
            "lat": "35.62534787349407",
            "lon": "139.88303017036733",
            "type": "restaurant"
        },
        {
            "name": "ホライズンベイ・レストラン",
            "lat": "35.625329434540184",
            "lon": "139.88332197925132",
            "type": "restaurant"
        },
        {
            "name": "エクスペディション・イート",
            "lat": "35.62655199342709",
            "lon": "139.88147863907696",
            "type": "restaurant"
        },
        {
            "name": "トロピック・アルズ",
            "lat": "35.62733398487032",
            "lon": "139.88214863509043",
            "type": "restaurant"
        },
        {
            "name": "ミゲルズ・エルドラド・キャンティーナ",
            "lat": "35.62635353687072",
            "lon": "139.88221841668994",
            "type": "restaurant"
        },
        {
            "name": "ユカタン・ベースキャンプ・グリル",
            "lat": "35.62685932680087",
            "lon": "139.8807422907195",
            "type": "restaurant"
        },
        {
            "name": "ロストリバークックハウス",
            "lat": "35.627528730257204",
            "lon": "139.88129555984574",
            "type": "restaurant"
        },
        {
            "name": "オープンセサミ",
            "lat": "35.628332835176884",
            "lon": "139.8818056970414",
            "type": "restaurant"
        },
        {
            "name": "カスバ・フードコート",
            "lat": "35.628467652267155",
            "lon": "139.88271758423892",
            "type": "restaurant"
        },
        {
            "name": "サルタンズ・オアシス",
            "lat": "35.62806195659733",
            "lon": "139.88205571876244",
            "type": "restaurant"
        },
        {
            "name": "セバスチャンのカリプソキッチン",
            "lat": "35.626576161868144",
            "lon": "139.88250134014066",
            "type": "restaurant"
        },
        {
            "name": "ヴォルケイニア・レストラン",
            "lat": "35.626687726652065",
            "lon": "139.8843650691074",
            "type": "restaurant"
        },
        {
            "name": "ノーチラスギャレー",
            "lat": "35.6262659901122",
            "lon": "139.88424979704135",
            "type": "restaurant"
        },
        {
            "name": "リフレッシュメント・ステーション",
            "lat": "35.62654293516153",
            "lon": "139.8838738970412",
            "type": "restaurant"
        },
        {
            "name": "イル・ポスティーノ・ステーショナリー",
            "lat": "35.627053829792416",
            "lon": "139.8864666793604",
            "type": "shop"
        },
        {
            "name": "ヴァレンティーナズ・スウィート",
            "lat": "35.62689230914014",
            "lon": "139.88835381094933",
            "type": "shop"
        },
        {
            "name": "ヴィラ・ドナルド・ホームショップ",
            "lat": "35.626212786779085",
            "lon": "139.88740088518182",
            "type": "shop"
        },
        {
            "name": "ヴェネツィアン・カーニバル・マーケット",
            "lat": "35.626337270308056",
            "lon": "139.88757496709434",
            "type": "shop"
        },
        {
            "name": "エンポーリオ",
            "lat": "35.62690536565524",
            "lon": "139.88788725437888",
            "type": "shop"
        },
        {
            "name": "ガッレリーア・ディズニー",
            "lat": "35.62671446795919",
            "lon": "139.8884136892084",
            "type": "shop"
        },
        {
            "name": "スプレンディード",
            "lat": "35.62657375882438",
            "lon": "139.88785306090304",
            "type": "shop"
        },
        {
            "name": "ピッコロメルカート",
            "lat": "35.62685455442086",
            "lon": "139.88760179728777",
            "type": "shop"
        },
        {
            "name": "フィガロズ・クロージアー",
            "lat": "35.62654965539287",
            "lon": "139.8880709872984",
            "type": "shop"
        },
        {
            "name": "フォトグラフィカ",
            "lat": "35.62668337182324",
            "lon": "139.8885987434835",
            "type": "shop"
        },
        {
            "name": "ベッラ・ミンニ・コレクション",
            "lat": "35.62708041807728",
            "lon": "139.88659347207502",
            "type": "shop"
        },
        {
            "name": "マーチャント・オブ・ヴェニス・コンフェクション",
            "lat": "35.62643965005653",
            "lon": "139.88783629286553",
            "type": "shop"
        },
        {
            "name": "ミラマーレ",
            "lat": "35.62697708019846",
            "lon": "139.88680208614412",
            "type": "shop"
        },
        {
            "name": "リメンブランツェ",
            "lat": "35.62518935048507",
            "lon": "139.88613344087182",
            "type": "shop"
        },
        {
            "name": "アーント・ペグズ・ヴィレッジストア",
            "lat": "35.62451924491055",
            "lon": "139.88455212560146",
            "type": "shop"
        },
        {
            "name": "スチームボート・ミッキーズ",
            "lat": "35.62501049638865",
            "lon": "139.88711099647574",
            "type": "shop"
        },
        {
            "name": "スリンキー・ドッグのギフトトロリー",
            "lat": "35.62468223963672",
            "lon": "139.88863096648507",
            "type": "shop"
        },
        {
            "name": "タワー・オブ・テラー・メモラビリア",
            "lat": "35.623904604027395",
            "lon": "139.8880629781352",
            "type": "shop"
        },
        {
            "name": "ニュージーズ・ノヴェルティ",
            "lat": "35.624554730269516",
            "lon": "139.8873323461311",
            "type": "shop"
        },
        {
            "name": "マクダックス・デパートメントストア",
            "lat": "35.62508364370584",
            "lon": "139.88749816160015",
            "type": "shop"
        },
        {
            "name": "スカイウォッチャー・スーヴェニア",
            "lat": "35.62548210888883",
            "lon": "139.8819793769745",
            "type": "shop"
        },
        {
            "name": "ディスカバリーギフト",
            "lat": "35.62505605408059",
            "lon": "139.88328215942215",
            "type": "shop"
        },
        {
            "name": "エクスペディション・フォトアーカイヴ",
            "lat": "35.62674376338182",
            "lon": "139.88113534998413",
            "type": "shop"
        },
        {
            "name": "ペドラーズ・アウトポスト",
            "lat": "35.6267657690279",
            "lon": "139.88123911760607",
            "type": "shop"
        },
        {
            "name": "ルックアウト・トレーダー",
            "lat": "35.62694452524924",
            "lon": "139.8814682737277",
            "type": "shop"
        },
        {
            "name": "ロストリバーアウトフィッター",
            "lat": "35.62677443516585",
            "lon": "139.88222003262334",
            "type": "shop"
        },
        {
            "name": "アグラバーマーケットプレイス",
            "lat": "35.628112961698555",
            "lon": "139.88262954350137",
            "type": "shop"
        },
        {
            "name": "アブーズ・バザール",
            "lat": "35.62811056149167",
            "lon": "139.88234041804847",
            "type": "shop"
        },
        {
            "name": "キス・デ・ガール・ファッション",
            "lat": "35.62700723497052",
            "lon": "139.88252646975775",
            "type": "shop"
        },
        {
            "name": "グロットフォト＆ギフト",
            "lat": "35.62746485770061",
            "lon": "139.88382750432524",
            "type": "shop"
        },
        {
            "name": "シータートル・スーヴェニア",
            "lat": "35.62703183626786",
            "lon": "139.88372426073525",
            "type": "shop"
        },
        {
            "name": "スリーピーホエール・ショップ",
            "lat": "35.62669513695009",
            "lon": "139.8826014298775",
            "type": "shop"
        },
        {
            "name": "マーメイドトレジャー",
            "lat": "35.626900580215036",
            "lon": "139.882564338146",
            "type": "shop"
        },
        {
            "name": "マーメイドメモリー",
            "lat": "35.62722882470246",
            "lon": "139.8830465204795",
            "type": "shop"
        },
        {
            "name": "ノーチラスギフト",
            "lat": "35.626211716413074",
            "lon": "139.88401990748127",
            "type": "shop"
        },
        {
            "name": "パークエントランス・ノース・チケットブース",
            "lat": "35.6276852325185",
            "lon": "139.88856278451385",
            "type": "place"
        },
        {
            "name": "パークエントランス・サウス・チケットブース",
            "lat": "35.626630558175975",
            "lon": "139.88994325030163",
            "type": "place"
        },
        {
            "name": "アクアスフィア",
            "lat": "35.627009703489286",
            "lon": "139.88911531873848",
            "type": "place"
        },
        {
            "name": "ディズニーシー・プラザ",
            "lat": "35.62696701859257",
            "lon": "139.88897013253737",
            "type": "place"
        },
        {
            "name": "ミッキー広場",
            "lat": "35.626591296757205",
            "lon": "139.88737282135511",
            "type": "place"
        }
     ]
}