{
    "spots": [
        {
            "name": "ソアリン：ファンタスティック・フライト",
            "short-name": "ソアリン",
            "lat": "35.62753096260775",
            "lon": "139.88570175371126",
            "type": "attraction",
            "play-time": "300",
            "url": "https://www.tokyodisneyresort.jp/tds/attraction/detail/219/",
            "area": "メディテレーニアンハーバー",
            "speed-thrill": "false"
        },
        {
            "name": "ディズニーシー・トランジットスチーマーライン（メディテレーニアンハーバー）",
            "short-name": "トランジットスチーマーライン(ハーバー)",
            "lat": "35.626573169189264",
            "lon": "139.88593456101927",
            "type": "attraction",
            "play-time": "420",
            "url": "https://www.tokyodisneyresort.jp/tds/attraction/detail/227/",
            "area": "メディテレーニアンハーバー",
            "speed-thrill": "false"
        },
        {
            "name": "フォートレス・エクスプロレーション",
            "short-name": "フォートレス・エクスプロレーション",
            "lat": "35.62577595814663",
            "lon": "139.88521622867762",
            "type": "attraction",
            "url": "https://www.tokyodisneyresort.jp/tds/attraction/detail/244/",
            "area": "メディテレーニアンハーバー",
            "speed-thrill": "false"
        },
        {
            "name": "ヴェネツィアン・ゴンドラ",
            "short-name": "ヴェネツィアン・ゴンドラ",
            "lat": "35.62609086477499",
            "lon": "139.88796327515433",
            "type": "attraction",
            "play-time": "690",
            "url": "https://www.tokyodisneyresort.jp/tds/attraction/detail/230/",
            "area": "メディテレーニアンハーバー",
            "speed-thrill": "false"
        },
        {
            "name": "タートル・トーク",
            "short-name": "タートル・トーク",
            "lat": "35.62334375031604",
            "lon": "139.88726518210083",
            "type": "attraction",
            "play-time": "1800",
            "url": "https://www.tokyodisneyresort.jp/tds/attraction/detail/246/",
            "area": "アメリカンウォーターフロント",
            "speed-thrill": "false"
        },
        {
            "name": "タワー・オブ・テラー",
            "short-name": "タワー・オブ・テラー",
            "lat": "35.62391248028388",
            "lon": "139.88828835075003",
            "type": "attraction",
            "play-time": "120",
            "url": "https://www.tokyodisneyresort.jp/tds/attraction/detail/243/",
            "area": "アメリカンウォーターフロント",
            "speed-thrill": "true"
        },
        {
            "name": "ディズニーシー・エレクトリックレールウェイ（アメリカンウォーターフロント）",
            "short-name": "エレクトリックレールウェイ(アメフロ)",
            "lat": "35.62491145456335",
            "lon": "139.88775091735545",
            "type": "attraction",
            "play-time": "150",
            "url": "https://www.tokyodisneyresort.jp/tds/attraction/detail/232/",
            "area": "アメリカンウォーターフロント",
            "speed-thrill": "false"
        },
        {
            "name": "ディズニーシー・トランジットスチーマーライン（アメリカンウォーターフロント）",
            "short-name": "トランジットスチーマーライン(アメフロ)",
            "lat": "35.62420292517226",
            "lon": "139.88569672120138",
            "type": "attraction",
            "play-time": "780",
            "url": "https://www.tokyodisneyresort.jp/tds/attraction/detail/228/",
            "area": "アメリカンウォーターフロント",
            "speed-thrill": "false"
        },
        {
            "name": "トイ・ストーリー・マニア！",
            "short-name": "トイ・ストーリー・マニア！",
            "lat": "35.62477700583167",
            "lon": "139.8889301319155",
            "type": "attraction",
            "play-time": "420",
            "url": "https://www.tokyodisneyresort.jp/tds/attraction/detail/218/",
            "area": "アメリカンウォーターフロント",
            "speed-thrill": "false"
        },
        {
            "name": "ビッグシティ・ヴィークル",
            "short-name": "ビッグシティ・ヴィークル",
            "lat": "35.62439387470845",
            "lon": "139.88706200880483",
            "type": "attraction",
            "play-time": "600",
            "url": "https://www.tokyodisneyresort.jp/tds/attraction/detail/233/",
            "area": "アメリカンウォーターフロント",
            "speed-thrill": "false"
        },
        {
            "name": "アクアトピア",
            "short-name": "アクアトピア",
            "lat": "35.62468589551906",
            "lon": "139.88349606906613",
            "type": "attraction",
            "play-time": "150",
            "url": "https://www.tokyodisneyresort.jp/tds/attraction/detail/234/",
            "area": "ポートディスカバリー",
            "speed-thrill": "false"
        },
        {
            "name": "ディズニーシー・エレクトリックレールウェイ（ポートディスカバリー）",
            "short-name": "エレクトリックレールウェイ(ポートディスカバリー)",
            "lat": "35.62539074665123",
            "lon": "139.88309169515944",
            "type": "attraction",
            "play-time": "150",
            "url": "https://www.tokyodisneyresort.jp/tds/attraction/detail/231/",
            "area": "ポートディスカバリー",
            "speed-thrill": "false"
        },
        {
            "name": "ニモ＆フレンズ・シーライダー",
            "short-name": "ニモ＆フレンズ・シーライダー",
            "lat": "35.62494825695022",
            "lon": "139.88251554646882",
            "type": "attraction",
            "play-time": "300",
            "url": "https://www.tokyodisneyresort.jp/tds/attraction/detail/247/",
            "area": "ポートディスカバリー",
            "speed-thrill": "false"
        },
        {
            "name": "インディ・ジョーンズ・アドベンチャー： クリスタルスカルの魔宮",
            "short-name": "インディ・ジョーンズ",
            "lat": "35.6263737631128",
            "lon": "139.8809767843943",
            "type": "attraction",
            "play-time": "180",
            "url": "https://www.tokyodisneyresort.jp/tds/attraction/detail/222/",
            "area": "ロストリバーデルタ",
            "speed-thrill": "true"
        },
        {
            "name": "ディズニーシー・トランジットスチーマーライン（ロストリバーデルタ）",
            "short-name": "ランジットスチーマーライン(ロストリバーデルタ)",
            "lat": "35.62673965820737",
            "lon": "139.8819008279609",
            "type": "attraction",
            "play-time": "360",
            "url": "https://www.tokyodisneyresort.jp/tds/attraction/detail/229/",
            "area": "ロストリバーデルタ",
            "speed-thrill": "false"
        },
        {
            "name": "レイジングスピリッツ",
            "short-name": "レイジングスピリッツ",
            "lat": "35.627722226399435",
            "lon": "139.88080457814263",
            "type": "attraction",
            "play-time": "90",
            "url": "https://www.tokyodisneyresort.jp/tds/attraction/detail/242/",
            "area": "ロストリバーデルタ",
            "speed-thrill": "true"
        },
        {
            "name": "キャラバンカルーセル",
            "short-name": "キャラバンカルーセル",
            "lat": "35.62817027479872",
            "lon": "139.88333969788812",
            "type": "attraction",
            "play-time": "150",
            "url": "https://www.tokyodisneyresort.jp/tds/attraction/detail/236/",
            "area": "アラビアンコースト",
            "speed-thrill": "false"
        },
        {
            "name": "ジャスミンのフライングカーペット",
            "short-name": "フライングカーペット",
            "lat": "35.62835033507712",
            "lon": "139.88110064513887",
            "type": "attraction",
            "play-time": "90",
            "url": "https://www.tokyodisneyresort.jp/tds/attraction/detail/220/",
            "area": "アラビアンコースト",
            "speed-thrill": "false"
        },
        {
            "name": "シンドバッド・ストーリーブック・ヴォヤッジ",
            "short-name": "シンドバッド・ストーリーブック・ヴォヤッジ",
            "lat": "35.628507999414445",
            "lon": "139.8814498574758",
            "type": "attraction",
            "play-time": "600",
            "url": "https://www.tokyodisneyresort.jp/tds/attraction/detail/235/",
            "area": "アラビアンコースト",
            "speed-thrill": "false"
        },
        {
            "name": "マジックランプシアター",
            "short-name": "マジックランプシアター",
            "lat": "35.628433782867795",
            "lon": "139.88306798035555",
            "type": "attraction",
            "play-time": "1380",
            "url": "https://www.tokyodisneyresort.jp/tds/attraction/detail/226/",
            "area": "アラビアンコースト",
            "speed-thrill": "false"
        },
        {
            "name": "アリエルのプレイグラウンド",
            "short-name": "アリエルのプレイグラウンド",
            "lat": "35.62679154348968",
            "lon": "139.8833172765092",
            "type": "attraction",
            "url": "https://www.tokyodisneyresort.jp/tds/attraction/detail/202/",
            "area": "マーメイドラグーン",
            "speed-thrill": "false"
        },
        {
            "name": "ジャンピン・ジェリーフィッシュ",
            "short-name": "ジャンピン・ジェリーフィッシュ",
            "lat": "35.626514238390236",
            "lon": "139.88340256425997",
            "type": "attraction",
            "play-time": "60",
            "url": "https://www.tokyodisneyresort.jp/tds/attraction/detail/239/",
            "area": "マーメイドラグーン",
            "speed-thrill": "false"
        },
        {
            "name": "スカットルのスクーター",
            "short-name": "スカットルのスクーター",
            "lat": "35.62726987355347",
            "lon": "139.88321567037846",
            "type": "attraction",
            "play-time": "90",
            "url": "https://www.tokyodisneyresort.jp/tds/attraction/detail/238/",
            "area": "マーメイドラグーン",
            "speed-thrill": "false"
        },
        {
            "name": "フランダーのフライングフィッシュコースター",
            "short-name": "フライングフィッシュコースター",
            "lat": "35.627035483426376",
            "lon": "139.88224597144833",
            "type": "attraction",
            "play-time": "60",
            "url": "https://www.tokyodisneyresort.jp/tds/attraction/detail/237/",
            "area": "マーメイドラグーン",
            "speed-thrill": "true"
        },
        {
            "name": "ブローフィッシュ・バルーンレース",
            "short-name": "ブローフィッシュ・バルーンレース",
            "lat": "35.626468454526325",
            "lon": "139.88290367341438",
            "type": "attraction",
            "play-time": "90",
            "url": "https://www.tokyodisneyresort.jp/tds/attraction/detail/240/",
            "area": "マーメイドラグーン",
            "speed-thrill": "false"
        },
        {
            "name": "マーメイドラグーンシアター",
            "short-name": "マーメイドラグーンシアター",
            "lat": "35.62640700722643",
            "lon": "139.88271825269382",
            "type": "attraction",
            "play-time": "840",
            "url": "https://www.tokyodisneyresort.jp/tds/attraction/detail/221/",
            "area": "マーメイドラグーン",
            "speed-thrill": "false"
        },
        {
            "name": "ワールプール",
            "short-name": "ワールプール",
            "lat": "35.626673391618006",
            "lon": "139.88312897895753",
            "type": "attraction",
            "play-time": "90",
            "url": "https://www.tokyodisneyresort.jp/tds/attraction/detail/241/",
            "area": "マーメイドラグーン",
            "speed-thrill": "false"
        },
        {
            "name": "海底2万マイル",
            "short-name": "海底2万マイル",
            "lat": "35.62641929875694",
            "lon": "139.88461075873784",
            "type": "attraction",
            "play-time": "300",
            "url": "https://www.tokyodisneyresort.jp/tds/attraction/detail/224/",
            "area": "ミステリアスアイランド",
            "speed-thrill": "false"
        },
        {
            "name": "センター・オブ・ジ・アース",
            "short-name": "センター・オブ・ジ・アース",
            "lat": "35.62591270174353",
            "lon": "139.88453268519172",
            "type": "attraction",
            "play-time": "180",
            "url": "https://www.tokyodisneyresort.jp/tds/attraction/detail/223/",
            "area": "ミステリアスアイランド",
            "speed-thrill": "true"
        },
        {
            "name": "カフェ・ポルトフィーノ",
            "short-name": "カフェ・ポルトフィーノ",
            "lat": "35.62695264833476",
            "lon": "139.88714679981504",
            "type": "restaurant",
            "url": "https://www.tokyodisneyresort.jp/tds/restaurant/detail/400/",
            "menu-url": "https://www.tokyodisneyresort.jp/tds/restaurant/menu/400/",
            "can-reserve": "false",
            "area": "メディテレーニアンハーバー",
            "menu-type": ["イタリアン", "パスタ", "ロティサリーチキン"],
            "budget-day": "1,200～2,200円",
            "budget-night": "1,200～2,200円",
            "seats": "570"
        },
        {
            "name": "ゴンドリエ・スナック",
            "short-name": "ゴンドリエ・スナック",
            "lat": "35.625966268892086",
            "lon": "139.88730258806373",
            "type": "restaurant",
            "url": "https://www.tokyodisneyresort.jp/tds/restaurant/detail/411/",
            "menu-url": "https://www.tokyodisneyresort.jp/tds/restaurant/menu/411/",
            "can-reserve": "false",
            "area": "メディテレーニアンハーバー",
            "menu-type": ["ドリンク", "スウィーツ"],
            "budget-day": "～1,200円",
            "budget-night": "～1,200円",
            "seats": "120"
        },
        {
            "name": "ザンビーニ･ブラザーズ･リストランテ",
            "short-name": "ザンビーニ･ブラザーズ･リストランテ",
            "lat": "35.627169846655995",
            "lon": "139.8860085445333",
            "type": "restaurant",
            "url": "https://www.tokyodisneyresort.jp/tds/restaurant/detail/403/",
            "menu-url": "https://www.tokyodisneyresort.jp/tds/restaurant/menu/403/",
            "can-reserve": "false",
            "area": "メディテレーニアンハーバー",
            "menu-type": ["イタリアン", "パスタ", "ピッツァ"],
            "budget-day": "1,200円～2,200円",
            "budget-night": "1,200円～2,200円",
            "seats": "840"
        },
        {
            "name": "マゼランズ",
            "short-name": "マゼランズ",
            "lat": "35.62593079188322",
            "lon": "139.88528718994823",
            "type": "restaurant",
            "url": "https://www.tokyodisneyresort.jp/tds/restaurant/detail/412/",
            "menu-url": "https://www.tokyodisneyresort.jp/tds/restaurant/menu/412/",
            "can-reserve": "true",
            "area": "メディテレーニアンハーバー",
            "menu-type": ["コース料理", "ワイン"],
            "budget-day": "3,700円～",
            "budget-night": "5,800円～",
            "seats": "200"
        },
        {
            "name": "マゼランズ・ラウンジ",
            "short-name": "マゼランズ・ラウンジ",
            "lat": "35.62591171513723",
            "lon": "139.88533479915824",
            "type": "restaurant",
            "url": "https://www.tokyodisneyresort.jp/tds/restaurant/detail/415/",
            "menu-url": "https://www.tokyodisneyresort.jp/tds/restaurant/menu/415/",
            "can-reserve": "false",
            "area": "メディテレーニアンハーバー",
            "menu-type": ["オードブル", "カクテル"],
            "budget-day": "1,200～2,200円",
            "budget-night": "1,200～2,200円",
            "seats": "70"
        },
        {
            "name": "マンマ・ビスコッティーズ・ベーカリー",
            "short-name": "マンマ・ビスコッティーズ",
            "lat": "35.627031123601206",
            "lon": "139.88761556530423",
            "type": "restaurant",
            "url": "https://www.tokyodisneyresort.jp/tds/restaurant/detail/401/",
            "menu-url": "https://www.tokyodisneyresort.jp/tds/restaurant/menu/401/",
            "can-reserve": "false",
            "area": "メディテレーニアンハーバー",
            "menu-type": ["パン", "スウィーツ"],
            "budget-day": "～1,200円",
            "budget-night": "～1,200円",
            "seats": "150"
        },
        {
            "name": "リストランテ・ディ・カナレット",
            "short-name": "カナレット",
            "lat": "35.6256768376592",
            "lon": "139.8878840659662",
            "type": "restaurant",
            "url": "https://www.tokyodisneyresort.jp/tds/restaurant/detail/408/",
            "menu-url": "https://www.tokyodisneyresort.jp/tds/restaurant/menu/408/",
            "can-reserve": "true",
            "area": "メディテレーニアンハーバー",
            "menu-type": ["イタリアン", "パスタ料理", "窯焼きピッツァ"],
            "budget-day": "2,200円～",
            "budget-night": "2,200円～",
            "seats": "220"
        },
        {
            "name": "リフレスコス",
            "short-name": "リフレスコス",
            "lat": "35.625922848537776",
            "lon": "139.88498528406274",
            "type": "restaurant",
            "url": "https://www.tokyodisneyresort.jp/tds/restaurant/detail/416/",
            "menu-url": "https://www.tokyodisneyresort.jp/tds/restaurant/menu/416/",
            "can-reserve": "false",
            "area": "メディテレーニアンハーバー",
            "menu-type": ["ターキーレッグ"],
            "budget-day": "～1,200円",
            "budget-night": "～1,200円",
            "seats": "90"
        },
        {
            "name": "S.S.コロンビア・ダイニングルーム",
            "short-name": "S.S.コロンビア・ダイニングルーム",
            "lat": "35.62336259993873",
            "lon": "139.88722275593676",
            "type": "restaurant",
            "url": "https://www.tokyodisneyresort.jp/tds/restaurant/detail/425/",
            "menu-url": "https://www.tokyodisneyresort.jp/tds/restaurant/menu/425/",
            "can-reserve": "true",
            "area": "アメリカンウォーターフロント",
            "menu-type": ["セットメニュー", "ローストビーフ", "ワイン"],
            "budget-day": "3,700円～",
            "budget-night": "3,700円～",
            "seats": "190"
        },
        {
            "name": "ケープコッド・クックオフ",
            "short-name": "ケープコッド・クックオフ",
            "lat": "35.62454246535265",
            "lon": "139.88510562868893",
            "type": "restaurant",
            "url": "https://www.tokyodisneyresort.jp/tds/restaurant/detail/446/",
            "menu-url": "https://www.tokyodisneyresort.jp/tds/restaurant/menu/446/",
            "can-reserve": "false",
            "area": "アメリカンウォーターフロント",
            "menu-type": ["ハンバーガー"],
            "budget-day": "～1,200円",
            "budget-night": "～1,200円",
            "seats": "860"
        },
        {
            "name": "ケープコッド・コンフェクション",
            "short-name": "ケープコッド・コンフェクション",
            "lat": "35.62455907346721",
            "lon": "139.8849652703674",
            "type": "restaurant",
            "url": "https://www.tokyodisneyresort.jp/tds/restaurant/detail/448/",
            "menu-url": "https://www.tokyodisneyresort.jp/tds/restaurant/menu/448/",
            "can-reserve": "false",
            "area": "アメリカンウォーターフロント",
            "menu-type": ["スウィーツ", "ドリンク", "ダッフィー"],
            "budget-day": "～1,200円",
            "budget-night": "～1,200円",
            "seats": "None"
        },
        {
            "name": "ドックサイドダイナー",
            "short-name": "ドックサイドダイナー",
            "lat": "35.62377706755055",
            "lon": "139.88760165630976",
            "type": "restaurant",
            "url": "https://www.tokyodisneyresort.jp/tds/restaurant/detail/441/",
            "menu-url": "https://www.tokyodisneyresort.jp/tds/restaurant/menu/441/",
            "can-reserve": "false",
            "area": "アメリカンウォーターフロント",
            "menu-type": ["ドリア", "サンドウィッチ", "フライドチキン"],
            "budget-day": "～1,200円",
            "budget-night": "～1,200円",
            "seats": "470"
        },
        {
            "name": "テディ・ルーズヴェルト・ラウンジ",
            "short-name": "テディ・ルーズヴェルト・ラウンジ",
            "lat": "35.62340244500671",
            "lon": "139.887249490907",
            "type": "restaurant",
            "url": "https://www.tokyodisneyresort.jp/tds/restaurant/detail/429/",
            "menu-url": "https://www.tokyodisneyresort.jp/tds/restaurant/menu/429/",
            "can-reserve": "true",
            "area": "アメリカンウォーターフロント",
            "menu-type": ["サンドウィッチ", "生ビール", "カクテル"],
            "budget-day": "1,200～2,200円",
            "budget-night": "1,200～2,200円",
            "seats": "110"
        },
        {
            "name": "デランシー・ケータリング",
            "short-name": "デランシー・ケータリング",
            "lat": "35.62486059009338",
            "lon": "139.8875073792503",
            "type": "restaurant",
            "url": "https://www.tokyodisneyresort.jp/tds/restaurant/detail/423/",
            "menu-url": "https://www.tokyodisneyresort.jp/tds/restaurant/menu/423/",
            "can-reserve": "false",
            "area": "アメリカンウォーターフロント",
            "menu-type": ["ホットドック"],
            "budget-day": "～1,200円",
            "budget-night": "～1,200円",
            "seats": "None"
        },
        {
            "name": "ニューヨーク・デリ",
            "short-name": "ニューヨーク・デリ",
            "lat": "35.625360255196206",
            "lon": "139.8878674000761",
            "type": "restaurant",
            "url": "https://www.tokyodisneyresort.jp/tds/restaurant/detail/422/",
            "menu-url": "https://www.tokyodisneyresort.jp/tds/restaurant/menu/422/",
            "can-reserve": "false",
            "area": "アメリカンウォーターフロント",
            "menu-type": ["サンドウィッチ"],
            "budget-day": "～1,200円",
            "budget-night": "～1,200円",
            "seats": "560"
        },
        {
            "name": "バーナクル・ビルズ",
            "short-name": "バーナクル・ビルズ",
            "lat": "35.624057270334205",
            "lon": "139.88680246759344",
            "type": "restaurant",
            "url": "https://www.tokyodisneyresort.jp/tds/restaurant/detail/430/",
            "menu-url": "https://www.tokyodisneyresort.jp/tds/restaurant/menu/430/",
            "can-reserve": "false",
            "area": "アメリカンウォーターフロント",
            "menu-type": ["骨付きソーセージ", "ビール"],
            "budget-day": "～1,200円",
            "budget-night": "～1,200円",
            "seats": "None"
        },
        {
            "name": "ハイタイド・トリート",
            "short-name": "ハイタイド・トリート",
            "lat": "35.624982684284234",
            "lon": "139.88435859423043",
            "type": "restaurant",
            "url": "https://www.tokyodisneyresort.jp/tds/restaurant/detail/449/",
            "menu-url": "https://www.tokyodisneyresort.jp/tds/restaurant/menu/449/",
            "can-reserve": "false",
            "area": "アメリカンウォーターフロント",
            "menu-type": ["チュロス"],
            "budget-day": "～1,200円",
            "budget-night": "～1,200円",
            "seats": "None"
        },
        {
            "name": "ハドソンリバー・ハーベスト",
            "short-name": "ハドソンリバー・ハーベスト",
            "lat": "35.623791799452526",
            "lon": "139.88736299869663",
            "type": "restaurant",
            "url": "https://www.tokyodisneyresort.jp/tds/restaurant/detail/498/",
            "menu-url": "https://www.tokyodisneyresort.jp/tds/restaurant/menu/498/",
            "can-reserve": "false",
            "area": "アメリカンウォーターフロント",
            "menu-type": ["ベイクドポテト", "季節のメニュー"],
            "budget-day": "～1,200円",
            "budget-night": "～1,200円",
            "seats": "40"
        },
        {
            "name": "パパダキス・フレッシュフルーツ",
            "short-name": "パパダキス・フレッシュフルーツ",
            "lat": "35.6241067916498",
            "lon": "139.88698791986826",
            "type": "restaurant",
            "url": "https://www.tokyodisneyresort.jp/tds/restaurant/detail/440/",
            "menu-url": "https://www.tokyodisneyresort.jp/tds/restaurant/menu/440/",
            "can-reserve": "false",
            "area": "アメリカンウォーターフロント",
            "menu-type": ["フルーツカップ"],
            "budget-day": "～1,200円",
            "budget-night": "～1,200円",
            "seats": "None"
        },
        {
            "name": "リバティ・ランディング・ダイナー",
            "short-name": "リバティ・ランディング・ダイナー",
            "lat": "35.62453805491093",
            "lon": "139.88702237925037",
            "type": "restaurant",
            "url": "https://www.tokyodisneyresort.jp/tds/restaurant/detail/435/",
            "menu-url": "https://www.tokyodisneyresort.jp/tds/restaurant/menu/435/",
            "can-reserve": "false",
            "area": "アメリカンウォーターフロント",
            "menu-type": ["シェイプアイス"],
            "budget-day": "～1,200円",
            "budget-night": "～1,200円",
            "seats": "None"
        },
        {
            "name": "レストラン櫻",
            "short-name": "レストラン櫻",
            "lat": "35.624750388158205",
            "lon": "139.88706780260532",
            "type": "restaurant",
            "url": "https://www.tokyodisneyresort.jp/tds/restaurant/detail/432/",
            "menu-url": "https://www.tokyodisneyresort.jp/tds/restaurant/menu/432/",
            "can-reserve": "true",
            "area": "アメリカンウォーターフロント",
            "menu-type": ["和食", "天ぷら"],
            "budget-day": "2,200円～",
            "budget-night": "2,200円～",
            "seats": "260"
        },
        {
            "name": "レストラン櫻 テラス席",
            "short-name": "レストラン櫻 テラス席",
            "lat": "35.62463665215171",
            "lon": "139.88699008414704",
            "type": "restaurant",
            "url": "https://www.tokyodisneyresort.jp/tds/restaurant/detail/436/",
            "menu-url": "https://www.tokyodisneyresort.jp/tds/restaurant/menu/436/",
            "can-reserve": "false",
            "area": "アメリカンウォーターフロント",
            "menu-type": ["スナック", "ビール"],
            "budget-day": "～1,200円",
            "budget-night": "～1,200円",
            "seats": "40"
        },
        {
            "name": "シーサイドスナック",
            "short-name": "シーサイドスナック",
            "lat": "35.624226490084894",
            "lon": "139.88407739704098",
            "type": "restaurant",
            "url": "https://www.tokyodisneyresort.jp/tds/restaurant/detail/450/",
            "menu-url": "https://www.tokyodisneyresort.jp/tds/restaurant/menu/450/",
            "can-reserve": "false",
            "area": "ポートディスカバリー",
            "menu-type": ["うきわまん"],
            "budget-day": "～1,200円",
            "budget-night": "～1,200円",
            "seats": "30"
        },
        {
            "name": "ブリーズウェイ・バイツ",
            "short-name": "ブリーズウェイ・バイツ",
            "lat": "35.62557288181555",
            "lon": "139.8832934499238",
            "type": "restaurant",
            "url": "https://www.tokyodisneyresort.jp/tds/restaurant/detail/454/",
            "menu-url": "https://www.tokyodisneyresort.jp/tds/restaurant/menu/454/",
            "can-reserve": "false",
            "area": "ポートディスカバリー",
            "menu-type": ["フライドピザ"],
            "budget-day": "～1,200円",
            "budget-night": "～1,200円",
            "seats": "20"
        },
        {
            "name": "ベイサイド・テイクアウト",
            "short-name": "ベイサイド・テイクアウト",
            "lat": "35.62534787349407",
            "lon": "139.88303017036733",
            "type": "restaurant",
            "url": "https://www.tokyodisneyresort.jp/tds/restaurant/detail/453/",
            "menu-url": "https://www.tokyodisneyresort.jp/tds/restaurant/menu/453/",
            "can-reserve": "false",
            "area": "ポートディスカバリー",
            "menu-type": ["スナック", "ビール"],
            "budget-day": "～1,200円",
            "budget-night": "～1,200円",
            "seats": "80"
        },
        {
            "name": "ホライズンベイ・レストラン",
            "short-name": "ホライズンベイ・レストラン",
            "lat": "35.625329434540184",
            "lon": "139.88332197925132",
            "type": "restaurant",
            "url": "https://www.tokyodisneyresort.jp/tds/restaurant/detail/451/",
            "menu-url": "https://www.tokyodisneyresort.jp/tds/restaurant/menu/451/",
            "can-reserve": "true",
            "area": "ポートディスカバリー",
            "menu-type": ["グリルドビーフ", "アントレ"],
            "budget-day": "1,200～2,200円",
            "budget-night": "1,200～2,200円",
            "seats": "500"
        },
        {
            "name": "エクスペディション・イート",
            "short-name": "エクスペディション・イート",
            "lat": "35.62655199342709",
            "lon": "139.88147863907696",
            "type": "restaurant",
            "url": "https://www.tokyodisneyresort.jp/tds/restaurant/detail/460/",
            "menu-url": "https://www.tokyodisneyresort.jp/tds/restaurant/menu/460/",
            "can-reserve": "false",
            "area": "ロストリバーデルタ",
            "menu-type": ["ソーセージドッグ"],
            "budget-day": "～1,200円",
            "budget-night": "～1,200円",
            "seats": "None"
        },
        {
            "name": "トロピック・アルズ",
            "short-name": "トロピック・アルズ",
            "lat": "35.62733398487032",
            "lon": "139.88214863509043",
            "type": "restaurant",
            "url": "https://www.tokyodisneyresort.jp/tds/restaurant/detail/457/",
            "menu-url": "https://www.tokyodisneyresort.jp/tds/restaurant/menu/457/",
            "can-reserve": "false",
            "area": "ロストリバーデルタ",
            "menu-type": ["スナック"],
            "budget-day": "～1,200円",
            "budget-night": "～1,200円",
            "seats": "30"
        },
        {
            "name": "ミゲルズ・エルドラド・キャンティーナ",
            "short-name": "ミゲルズ・エルドラド・キャンティーナ",
            "lat": "35.62635353687072",
            "lon": "139.88221841668994",
            "type": "restaurant",
            "url": "https://www.tokyodisneyresort.jp/tds/restaurant/detail/456/",
            "menu-url": "https://www.tokyodisneyresort.jp/tds/restaurant/menu/456/",
            "can-reserve": "false",
            "area": "ロストリバーデルタ",
            "menu-type": ["メキシコ料理"],
            "budget-day": "1,200円～2,200円",
            "budget-night": "1,200円～2,200円",
            "seats": "620"
        },
        {
            "name": "ユカタン・ベースキャンプ・グリル",
            "short-name": "ユカタン・ベースキャンプ・グリル",
            "lat": "35.62685932680087",
            "lon": "139.8807422907195",
            "type": "restaurant",
            "url": "https://www.tokyodisneyresort.jp/tds/restaurant/detail/459/",
            "menu-url": "https://www.tokyodisneyresort.jp/tds/restaurant/menu/459/",
            "can-reserve": "false",
            "area": "ロストリバーデルタ",
            "menu-type": ["ポーク", "チキン", "サーモン", "グリル"],
            "budget-day": "1,200～2,200円",
            "budget-night": "1,200～2,200円",
            "seats": "700"
        },
        {
            "name": "ロストリバークックハウス",
            "short-name": "ロストリバークックハウス",
            "lat": "35.627528730257204",
            "lon": "139.88129555984574",
            "type": "restaurant",
            "url": "https://www.tokyodisneyresort.jp/tds/restaurant/detail/461/",
            "menu-url": "https://www.tokyodisneyresort.jp/tds/restaurant/menu/461/",
            "can-reserve": "false",
            "area": "ロストリバーデルタ",
            "menu-type": ["ターキーレッグ"],
            "budget-day": "～1,200円",
            "budget-night": "～1,200円",
            "seats": "30"
        },
        {
            "name": "オープンセサミ",
            "short-name": "オープンセサミ",
            "lat": "35.628332835176884",
            "lon": "139.8818056970414",
            "type": "restaurant",
            "url": "https://www.tokyodisneyresort.jp/tds/restaurant/detail/465/",
            "menu-url": "https://www.tokyodisneyresort.jp/tds/restaurant/menu/465/",
            "can-reserve": "false",
            "area": "アラビアンコースト",
            "menu-type": ["チュロス"],
            "budget-day": "～1,200円",
            "budget-night": "～1,200円",
            "seats": "None"
        },
        {
            "name": "カスバ・フードコート",
            "short-name": "カスバ・フードコート",
            "lat": "35.628467652267155",
            "lon": "139.88271758423892",
            "type": "restaurant",
            "url": "https://www.tokyodisneyresort.jp/tds/restaurant/detail/463/",
            "menu-url": "https://www.tokyodisneyresort.jp/tds/restaurant/menu/463/",
            "can-reserve": "false",
            "area": "アラビアンコースト",
            "menu-type": ["カレー"],
            "budget-day": "～1,200円",
            "budget-night": "～1,200円",
            "seats": "930"
        },
        {
            "name": "サルタンズ・オアシス",
            "short-name": "サルタンズ・オアシス",
            "lat": "35.62806195659733",
            "lon": "139.88205571876244",
            "type": "restaurant",
            "url": "https://www.tokyodisneyresort.jp/tds/restaurant/detail/464/",
            "menu-url": "https://www.tokyodisneyresort.jp/tds/restaurant/menu/464/",
            "can-reserve": "false",
            "area": "アラビアンコースト",
            "menu-type": ["スナック", "アイス"],
            "budget-day": "～1,200円",
            "budget-night": "～1,200円",
            "seats": "160"
        },
        {
            "name": "セバスチャンのカリプソキッチン",
            "short-name": "カリプソキッチン",
            "lat": "35.626576161868144",
            "lon": "139.88250134014066",
            "type": "restaurant",
            "url": "https://www.tokyodisneyresort.jp/tds/restaurant/detail/468/",
            "menu-url": "https://www.tokyodisneyresort.jp/tds/restaurant/menu/468/",
            "can-reserve": "false",
            "area": "マーメイドラグーン",
            "menu-type": ["ピザ"],
            "budget-day": "～1,200円",
            "budget-night": "～1,200円",
            "seats": "580"
        },
        {
            "name": "ヴォルケイニア・レストラン",
            "short-name": "ヴォルケイニア・レストラン",
            "lat": "35.626687726652065",
            "lon": "139.8843650691074",
            "type": "restaurant",
            "url": "https://www.tokyodisneyresort.jp/tds/restaurant/detail/418/",
            "menu-url": "https://www.tokyodisneyresort.jp/tds/restaurant/menu/418/",
            "can-reserve": "false",
            "area": "ミステリアスアイランド",
            "menu-type": ["中華料理", "チャーハン", "点心"],
            "budget-day": "1,200～2,200円",
            "budget-night": "1,200～2,200円",
            "seats": "610"
        },
        {
            "name": "ノーチラスギャレー",
            "short-name": "ノーチラスギャレー",
            "lat": "35.6262659901122",
            "lon": "139.88424979704135",
            "type": "restaurant",
            "url": "https://www.tokyodisneyresort.jp/tds/restaurant/detail/421/",
            "menu-url": "https://www.tokyodisneyresort.jp/tds/restaurant/menu/421/",
            "can-reserve": "false",
            "area": "ミステリアスアイランド",
            "menu-type": ["スナック"],
            "budget-day": "～1,200円",
            "budget-night": "～1,200円",
            "seats": "140"
        },
        {
            "name": "リフレッシュメント・ステーション",
            "short-name": "リフレッシュメント・ステーション",
            "lat": "35.62654293516153",
            "lon": "139.8838738970412",
            "type": "restaurant",
            "url": "https://www.tokyodisneyresort.jp/tds/restaurant/detail/419/",
            "menu-url": "https://www.tokyodisneyresort.jp/tds/restaurant/menu/419/",
            "can-reserve": "false",
            "area": "ミステリアスアイランド",
            "menu-type": ["チュロス"],
            "budget-day": "～1,200円",
            "budget-night": "～1,200円",
            "seats": "None"
        },
        {
            "name": "イル・ポスティーノ・ステーショナリー",
            "short-name": "イル・ポスティーノ・ステーショナリー",
            "lat": "35.627053829792416",
            "lon": "139.8864666793604",
            "type": "shop",
            "url": "https://www.tokyodisneyresort.jp/tds/shop/detail/604/",
            "area": "メディテレーニアンハーバー"
        },
        {
            "name": "ヴァレンティーナズ・スウィート",
            "short-name": "ヴァレンティーナズ・スウィート",
            "lat": "35.62689230914014",
            "lon": "139.88835381094933",
            "type": "shop",
            "url": "https://www.tokyodisneyresort.jp/tds/shop/detail/600/",
            "area": "メディテレーニアンハーバー"
        },
        {
            "name": "ヴィラ・ドナルド・ホームショップ",
            "short-name": "ヴィラ・ドナルド・ホームショップ",
            "lat": "35.626212786779085",
            "lon": "139.88740088518182",
            "type": "shop",
            "url": "https://www.tokyodisneyresort.jp/tds/shop/detail/616/",
            "area": "メディテレーニアンハーバー"
        },
        {
            "name": "ヴェネツィアン・カーニバル・マーケット",
            "short-name": "ヴェネツィアン・カーニバル・マーケット",
            "lat": "35.626337270308056",
            "lon": "139.88757496709434",
            "type": "shop",
            "url": "https://www.tokyodisneyresort.jp/tds/shop/detail/615/",
            "area": "メディテレーニアンハーバー"
        },
        {
            "name": "エンポーリオ",
            "short-name": "エンポーリオ",
            "lat": "35.62690536565524",
            "lon": "139.88788725437888",
            "type": "shop",
            "url": "https://www.tokyodisneyresort.jp/tds/shop/detail/601/",
            "area": "メディテレーニアンハーバー"
        },
        {
            "name": "ガッレリーア・ディズニー",
            "short-name": "ガッレリーア・ディズニー",
            "lat": "35.62671446795919",
            "lon": "139.8884136892084",
            "type": "shop",
            "url": "https://www.tokyodisneyresort.jp/tds/shop/detail/611/",
            "area": "メディテレーニアンハーバー"
        },
        {
            "name": "スプレンディード",
            "short-name": "スプレンディード",
            "lat": "35.62657375882438",
            "lon": "139.88785306090304",
            "type": "shop",
            "url": "https://www.tokyodisneyresort.jp/tds/shop/detail/613/",
            "area": "メディテレーニアンハーバー"
        },
        {
            "name": "ピッコロメルカート",
            "short-name": "ピッコロメルカート",
            "lat": "35.62685455442086",
            "lon": "139.88760179728777",
            "type": "shop",
            "url": "https://www.tokyodisneyresort.jp/tds/shop/detail/602/",
            "area": "メディテレーニアンハーバー"
        },
        {
            "name": "フィガロズ・クロージアー",
            "short-name": "フィガロズ・クロージアー",
            "lat": "35.62654965539287",
            "lon": "139.8880709872984",
            "type": "shop",
            "url": "https://www.tokyodisneyresort.jp/tds/shop/detail/612/",
            "area": "メディテレーニアンハーバー"
        },
        {
            "name": "フォトグラフィカ",
            "short-name": "フォトグラフィカ",
            "lat": "35.62668337182324",
            "lon": "139.8885987434835",
            "type": "shop",
            "url": "https://www.tokyodisneyresort.jp/tds/shop/detail/608/",
            "area": "メディテレーニアンハーバー"
        },
        {
            "name": "ベッラ・ミンニ・コレクション",
            "short-name": "ベッラ・ミンニ・コレクション",
            "lat": "35.62708041807728",
            "lon": "139.88659347207502",
            "type": "shop",
            "url": "https://www.tokyodisneyresort.jp/tds/shop/detail/605/",
            "area": "メディテレーニアンハーバー"
        },
        {
            "name": "マーチャント・オブ・ヴェニス・コンフェクション",
            "short-name": "マーチャント・オブ・ヴェニス・コンフェクション",
            "lat": "35.62643965005653",
            "lon": "139.88783629286553",
            "type": "shop",
            "url": "https://www.tokyodisneyresort.jp/tds/shop/detail/614/",
            "area": "メディテレーニアンハーバー"
        },
        {
            "name": "ミラマーレ",
            "short-name": "ミラマーレ",
            "lat": "35.62697708019846",
            "lon": "139.88680208614412",
            "type": "shop",
            "url": "https://www.tokyodisneyresort.jp/tds/shop/detail/606/",
            "area": "メディテレーニアンハーバー"
        },
        {
            "name": "リメンブランツェ",
            "short-name": "リメンブランツェ",
            "lat": "35.62518935048507",
            "lon": "139.88613344087182",
            "type": "shop",
            "url": "https://www.tokyodisneyresort.jp/tds/shop/detail/617/",
            "area": "メディテレーニアンハーバー"
        },
        {
            "name": "アーント・ペグズ・ヴィレッジストア",
            "short-name": "アーント・ペグズ・ヴィレッジストア",
            "lat": "35.62451924491055",
            "lon": "139.88455212560146",
            "type": "shop",
            "url": "https://www.tokyodisneyresort.jp/tds/shop/detail/629/",
            "area": "アメリカンウォーターフロント"
        },
        {
            "name": "スチームボート・ミッキーズ",
            "short-name": "スチームボート・ミッキーズ",
            "lat": "35.62501049638865",
            "lon": "139.88711099647574",
            "type": "shop",
            "url": "https://www.tokyodisneyresort.jp/tds/shop/detail/622/",
            "area": "アメリカンウォーターフロント"
        },
        {
            "name": "スリンキー・ドッグのギフトトロリー",
            "short-name": "スリンキー・ドッグのギフトトロリー",
            "lat": "35.62468223963672",
            "lon": "139.88863096648507",
            "type": "shop",
            "url": "https://www.tokyodisneyresort.jp/tds/shop/detail/618/",
            "area": "アメリカンウォーターフロント"
        },
        {
            "name": "タワー・オブ・テラー・メモラビリア",
            "short-name": "タワー・オブ・テラー・メモラビリア",
            "lat": "35.623904604027395",
            "lon": "139.8880629781352",
            "type": "shop",
            "url": "https://www.tokyodisneyresort.jp/tds/shop/detail/624/",
            "area": "アメリカンウォーターフロント"
        },
        {
            "name": "ニュージーズ・ノヴェルティ",
            "short-name": "ニュージーズ・ノヴェルティ",
            "lat": "35.624554730269516",
            "lon": "139.8873323461311",
            "type": "shop",
            "url": "https://www.tokyodisneyresort.jp/tds/shop/detail/623/",
            "area": "アメリカンウォーターフロント"
        },
        {
            "name": "マクダックス・デパートメントストア",
            "short-name": "マクダックス・デパートメントストア",
            "lat": "35.62508364370584",
            "lon": "139.88749816160015",
            "type": "shop",
            "url": "https://www.tokyodisneyresort.jp/tds/shop/detail/621/",
            "area": "アメリカンウォーターフロント"
        },
        {
            "name": "スカイウォッチャー・スーヴェニア",
            "short-name": "スカイウォッチャー・スーヴェニア",
            "lat": "35.62548210888883",
            "lon": "139.8819793769745",
            "type": "shop",
            "url": "https://www.tokyodisneyresort.jp/tds/shop/detail/631/",
            "area": "ポートディスカバリー"
        },
        {
            "name": "ディスカバリーギフト",
            "short-name": "ディスカバリーギフト",
            "lat": "35.62505605408059",
            "lon": "139.88328215942215",
            "type": "shop",
            "url": "https://www.tokyodisneyresort.jp/tds/shop/detail/630/",
            "area": "ポートディスカバリー"
        },
        {
            "name": "エクスペディション・フォトアーカイヴ",
            "short-name": "エクスペディション・フォトアーカイヴ",
            "lat": "35.62674376338182",
            "lon": "139.88113534998413",
            "type": "shop",
            "url": "https://www.tokyodisneyresort.jp/tds/shop/detail/648/",
            "area": "ロストリバーデルタ"
        },
        {
            "name": "ペドラーズ・アウトポスト",
            "short-name": "ペドラーズ・アウトポスト",
            "lat": "35.6267657690279",
            "lon": "139.88123911760607",
            "type": "shop",
            "url": "https://www.tokyodisneyresort.jp/tds/shop/detail/644/",
            "area": "ロストリバーデルタ"
        },
        {
            "name": "ルックアウト・トレーダー",
            "short-name": "ルックアウト・トレーダー",
            "lat": "35.62694452524924",
            "lon": "139.8814682737277",
            "type": "shop",
            "url": "https://www.tokyodisneyresort.jp/tds/shop/detail/647/",
            "area": "ロストリバーデルタ"
        },
        {
            "name": "ロストリバーアウトフィッター",
            "short-name": "ロストリバーアウトフィッター",
            "lat": "35.62677443516585",
            "lon": "139.88222003262334",
            "type": "shop",
            "url": "https://www.tokyodisneyresort.jp/tds/shop/detail/645/",
            "area": "ロストリバーデルタ"
        },
        {
            "name": "アグラバーマーケットプレイス",
            "short-name": "アグラバーマーケットプレイス",
            "lat": "35.628112961698555",
            "lon": "139.88262954350137",
            "type": "shop",
            "url": "https://www.tokyodisneyresort.jp/tds/shop/detail/641/",
            "area": "アラビアンコースト"
        },
        {
            "name": "アブーズ・バザール",
            "short-name": "アブーズ・バザール",
            "lat": "35.62811056149167",
            "lon": "139.88234041804847",
            "type": "shop",
            "url": "https://www.tokyodisneyresort.jp/tds/shop/detail/650/",
            "area": "アラビアンコースト"
        },
        {
            "name": "キス・デ・ガール・ファッション",
            "short-name": "キス・デ・ガール・ファッション",
            "lat": "35.62700723497052",
            "lon": "139.88252646975775",
            "type": "shop",
            "url": "https://www.tokyodisneyresort.jp/tds/shop/detail/637/",
            "area": "マーメイドラグーン"
        },
        {
            "name": "グロットフォト＆ギフト",
            "short-name": "グロットフォト＆ギフト",
            "lat": "35.62746485770061",
            "lon": "139.88382750432524",
            "type": "shop",
            "url": "https://www.tokyodisneyresort.jp/tds/shop/detail/638/",
            "area": "マーメイドラグーン"
        },
        {
            "name": "シータートル・スーヴェニア",
            "short-name": "シータートル・スーヴェニア",
            "lat": "35.62703183626786",
            "lon": "139.88372426073525",
            "type": "shop",
            "url": "https://www.tokyodisneyresort.jp/tds/shop/detail/640/",
            "area": "マーメイドラグーン"
        },
        {
            "name": "スリーピーホエール・ショップ",
            "short-name": "スリーピーホエール・ショップ",
            "lat": "35.62669513695009",
            "lon": "139.8826014298775",
            "type": "shop",
            "url": "https://www.tokyodisneyresort.jp/tds/shop/detail/633/",
            "area": "マーメイドラグーン"
        },
        {
            "name": "マーメイドトレジャー",
            "short-name": "マーメイドトレジャー",
            "lat": "35.626900580215036",
            "lon": "139.882564338146",
            "type": "shop",
            "url": "https://www.tokyodisneyresort.jp/tds/shop/detail/636/",
            "area": "マーメイドラグーン"
        },
        {
            "name": "マーメイドメモリー",
            "short-name": "マーメイドメモリー",
            "lat": "35.62722882470246",
            "lon": "139.8830465204795",
            "type": "shop",
            "url": "https://www.tokyodisneyresort.jp/tds/shop/detail/639/",
            "area": "マーメイドラグーン"
        },
        {
            "name": "ノーチラスギフト",
            "short-name": "ノーチラスギフト",
            "lat": "35.626211716413074",
            "lon": "139.88401990748127",
            "type": "shop",
            "url": "https://www.tokyodisneyresort.jp/tds/shop/detail/632/",
            "area": "ミステリアスアイランド"
        },
        {
            "name": "パークエントランス・ノース・チケットブース",
            "short-name": "ノースエントランス",
            "lat": "35.6276852325185",
            "lon": "139.88856278451385",
            "type": "place",
            "url": "https://www.tokyodisneyresort.jp/tds/service/detail/041/",
            "area": "メディテレーニアンハーバー"
        },
        {
            "name": "パークエントランス・サウス・チケットブース",
            "short-name": "サウスエントランス",
            "lat": "35.626630558175975",
            "lon": "139.88994325030163",
            "type": "place",
            "url": "https://www.tokyodisneyresort.jp/tds/service/detail/041/",
            "area": "メディテレーニアンハーバー"
        },
        {
            "name": "アクアスフィア",
            "short-name": "アクアスフィア",
            "lat": "35.627009703489286",
            "lon": "139.88911531873848",
            "type": "place",
            "area": "メディテレーニアンハーバー"
        },
        {
            "name": "ディズニーシー・プラザ",
            "short-name": "ディズニーシー・プラザ",
            "lat": "35.62696701859257",
            "lon": "139.88897013253737",
            "type": "place",
            "url": "https://www.tokyodisneyresort.jp/dream/photo/character/tds_disneysea-plaza.html",
            "area": "メディテレーニアンハーバー"
        },
        {
            "name": "ミッキー広場",
            "short-name": "ミッキー広場",
            "lat": "35.626591296757205",
            "lon": "139.88737282135511",
            "type": "place",
            "area": "メディテレーニアンハーバー"
        },
        {
            "name": "ミッキー＆フレンズのハーバーグリーティング",
            "short-name": "ハーバーグリーティング",
            "lat": "35.626591296757205",
            "lon": "139.88737282135511",
            "type": "show",
            "play-time": "600",
            "url": "https://www.tokyodisneyresort.jp/tds/show/detail/265/",
            "area": "メディテレーニアンハーバー"
        },
        {
            "name": "ビッグバンドビート～ア・スペシャルトリート～",
            "short-name": "ビッグバンドビート",
            "lat": "35.62484764083992",
            "lon": "139.88824637236533",
            "type": "show",
            "play-time": "1500",
            "url": "https://www.tokyodisneyresort.jp/tds/show/detail/975/",
            "area": "アメリカンウォーターフロント"
        },
        {
            "name": "ディズニー・ライト・ザ・ナイト",
            "short-name": "ディズニー・ライト・ザ・ナイト",
            "lat": "35.626591296757205",
            "lon": "139.88737282135511",
            "type": "show",
            "play-time": "300",
            "url": "https://www.tokyodisneyresort.jp/tds/show/detail/930/",
            "area": "パークワイド"
        },
        {
            "name": "マイ・フレンド・ダッフィー",
            "short-name": "マイ・フレンド・ダッフィー",
            "lat": "35.62454488725738",
            "lon": "139.88491178287993",
            "type": "show",
            "play-time": "600",
            "url": "https://www.tokyodisneyresort.jp/tds/show/detail/931/",
            "area": "アメリカンウォーターフロント"
        },
        {
            "name": "ソング・オブ・ミラージュ",
            "short-name": "ソング・オブ・ミラージュ",
            "lat": "35.625848533170725",
            "lon": "139.88223858921663",
            "type": "show",
            "play-time": "1800",
            "url": "https://www.tokyodisneyresort.jp/tds/show/detail/927/",
            "area": "ロストリバーデルタ"
        },
        {
            "name": "ヴィレッジ・グリーティングプレイス",
            "short-name": "ヴィレッジ・グリーティングプレイス",
            "lat": "35.62410452165671",
            "lon": "139.88563214950267",
            "type": "greeting",
            "play-time": "180",
            "url": "https://www.tokyodisneyresort.jp/tds/greeting/detail/905/",
            "area": "アメリカンウォーターフロント",
            "character": "シェリーメイ"
        },
        {
            "name": "ドックサイドステージ（キャラクターグリーティング）",
            "short-name": "ドックサイドステージ",
            "lat": "35.62363420865239",
            "lon": "139.886931289538",
            "type": "greeting",
            "play-time": "180",
            "url": "https://www.tokyodisneyresort.jp/tds/greeting/detail/270/",
            "area": "アメリカンウォーターフロント",
            "character": "当日のお楽しみ"
        },
        {
            "name": "“サルードス・アミーゴス！”グリーティングドック",
            "short-name": "サルードス・アミーゴス！",
            "lat": "35.626410442370045",
            "lon": "139.8822065159945",
            "type": "greeting",
            "play-time": "180",
            "url": "https://www.tokyodisneyresort.jp/tds/greeting/detail/904/",
            "area": "ロストリバーデルタ",
            "character": "ダッフィー"
        },
        {
            "name": "ミッキー＆フレンズ・グリーティングトレイル（ミッキー）",
            "short-name": "グリーティングトレイル（ミッキー）",
            "lat": "35.625854419808654",
            "lon": "139.8812056245969",
            "type": "greeting",
            "play-time": "180",
            "url": "https://www.tokyodisneyresort.jp/tds/greeting/detail/901/",
            "area": "ロストリバーデルタ",
            "character": "ミッキーマウス"
        },
        {
            "name": "ミッキー＆フレンズ・グリーティングトレイル（ミニー）",
            "short-name": "グリーティングトレイル（ミニー）",
            "lat": "35.625854419808654",
            "lon": "139.8812056245969",
            "type": "greeting",
            "play-time": "180",
            "url": "https://www.tokyodisneyresort.jp/tds/greeting/detail/902/",
            "area": "ロストリバーデルタ",
            "character": "ミニーマウス"
        },
        {
            "name": "マーメイドラグーンシアター（キャラクターグリーティング）",
            "short-name": "マーメイドラグーンシアター",
            "lat": "35.62640223074321",
            "lon": "139.88271777395298",
            "type": "greeting",
            "play-time": "180",
            "url": "https://www.tokyodisneyresort.jp/tds/greeting/detail/272/",
            "area": "マーメイドラグーン",
            "character": "当日のお楽しみ"
        }
     ]
}